[
  {
    "position": { "lat": "25.8017556", "lng": "-80.2035881" },
    "address": "3510 Biscayne Blvd, Miami, FL 33137",
    "type": "Food Bank",
    "zone": "1",
    "name": "Food For Life Network",
    "phone": "(305) 576-3663",
    "id": "0"
  },
  {
    "position": { "lat": "25.78734", "lng": "-80.20012" },
    "address": "1328 NW 3rd Ave, Miami, FL 33136",
    "type": "Food Bank",
    "zone": "2",
    "name": "Saint John Baptist Church",
    "phone": "(305) 372-3877",
    "id": "1"
  },
  {
    "position": { "lat": "25.98715", "lng": "-80.17347" },
    "address": "2501 SW 32nd Terrace, Pembroke Park, FL 33023",
    "type": "Food Bank",
    "zone": "3",
    "name": "Feeding South Florida",
    "phone": "(954) 518-1818",
    "id": "2"
  },
  {
    "position": { "lat": "26.233641", "lng": "-80.139748" },
    "address": "1255 W Atlantic Blvd, Pompano Beach, FL 33069",
    "type": "Food Bank",
    "zone": "4",
    "name": "Farm Share",
    "phone": "(954) 942-6785",
    "id": "3"
  },
  {
    "position": { "lat": "25.847023", "lng": "-80.233667" },
    "address": "7950 NW 22 Avenue, Miami, FL 33147",
    "type": "Food Bank",
    "zone": "5",
    "name": "Glory Temple Ministries",
    "phone": "(305) 456-5216",
    "id": "4"
  },
  {
    "position": { "lat": "25.830699", "lng": "-80.20648" },
    "address": "6025 N.W. 6 Court, Miami, FL 33127",
    "type": "Food Bank",
    "zone": "6",
    "name": "Curleys House of Style",
    "phone": "(305) 759-9805",
    "id": "5"
  },
  {
    "position": { "lat": "25.9712261", "lng": "-80.2568991" },
    "address": "3340 NW 215th St, Miami Gardens, FL 33056",
    "type": "Food Bank",
    "zone": "7",
    "name": "Mt Pisgah Seventh-day Adventist Church",
    "phone": "(305) 624-0679",
    "id": "6"
  },
  {
    "position": { "lat": "26.233641", "lng": "-80.139748" },
    "address": "7950 NW 22 Avenue Miami, FL 33147",
    "type": "Food Bank",
    "zone": "8",
    "name": "Glory Temple Ministries",
    "phone": "(305) 456-5216",
    "id": "7"
  },
  {
    "position": { "lat": "25.9408686", "lng": "-80.2390172" },
    "address": "18291 NW 23rd Ave #3757, Miami Gardens, FL 33056",
    "type": "Food Bank",
    "zone": "9",
    "name": "Harvest Fire Worship Center",
    "phone": "(305) 620-2986",
    "id": "8"
  },
  {
    "position": { "lat": "25.7731991", "lng": "-80.2194653" },
    "address": "1492 W Flagler Street Miami, FL 33135",
    "type": "Food Bank",
    "zone": "10",
    "name": "Volunteers of America of FL",
    "phone": "(305) 644-0335",
    "id": "9"
  },
  {
    "position": { "lat": "25.8288133", "lng": "-80.1917071" },
    "address": "5801 NE 2nd Ave Miami, FL 33137",
    "type": "Food Bank",
    "zone": "11",
    "name": "Miami Peniel Church Nazarene",
    "phone": "(305) 770-1960",
    "id": "10"
  },
  {
    "position": { "lat": "25.7030607", "lng": "-80.2931365" },
    "address": "7311 SW 62nd Ave, South Miami, FL 33143",
    "type": "Community Garden",
    "name": "Grow2Heal South Miami",
    "phone": "No Number Listed",
    "id": "11"
  },
  {
    "position": { "lat": "25.724859", "lng": "-80.3919538" },
    "address": "4590 SW 122nd Ave, Miami, FL 33175",
    "type": "Community Garden",
    "name": "Ready-to-Grow Gardens",
    "phone": "(786) 436-7703",
    "id": "12"
  },
  {
    "position": { "lat": "25.7280707", "lng": "-80.3062472" },
    "address": "6870 SW 45th Ln #7, Miami, FL 33155",
    "type": "Community Garden",
    "name": "Urban Oasis Project",
    "phone": "(786) 427-4698",
    "id": "13"
  },
  {
    "position": { "lat": "25.7854704", "lng": "-80.1986865" },
    "address": "1160 NW 2nd Ave, Miami, FL 33136",
    "type": "Community Garden",
    "name": "The Green Haven Project",
    "phone": "No Number Listed",
    "id": "14"
  },
  {
    "position": { "lat": "25.8459858", "lng": "-80.1954869" },
    "address": "7718 NE 1st Ave, Miami, FL 33138",
    "type": "Community Garden",
    "name": "Earth n Us",
    "phone": "No Number Listed",
    "id": "15"
  },
  {
    "position": { "lat": "25.7716224", "lng": "-80.1339664" },
    "address": "226 Collins Ave, Miami Beach, FL 33139",
    "type": "Community Garden",
    "name": "Miami Beach Community Garden",
    "phone": "No Number Listed",
    "id": "16"
  },
  {
    "position": { "lat": "25.8571169", "lng": "-80.1250649" },
    "address": "7398-7342, Dickens Ave, Miami Beach, FL 33141",
    "type": "Community Garden",
    "name": "North Beach Community Garden",
    "phone": "No Number Listed",
    "id": "17"
  },
  {
    "position": { "lat": "25.975592", "lng": "80.240869" },
    "address": "3700 Largo Dr, Miramar, FL 33023",
    "type": "Community Garden",
    "name": "Miramar Community Garden",
    "phone": "(954) 602-3238",
    "id": "18"
  },
  {
    "position": { "lat": "26.0521954", "lng": "-80.151627" },
    "address": "1201 W Dania Beach Blvd, Dania Beach, FL 33004",
    "type": "Community Garden",
    "name": "PATCH",
    "phone": "(954) 924-6801",
    "id": "19"
  },
  {
    "position": { "lat": "26.358151", "lng": "-80.113797" },
    "address": "1300 NW 8th St, Boca Raton, FL 33486",
    "type": "Community Garden",
    "name": "Boca Raton Community Garden",
    "phone": "No Number Listed",
    "id": "20"
  },
  {
    "position": { "lat": "26.1774151", "lng": "-80.1340674" },
    "address": "1101 NE 40th Ct, Oakland Park, FL 33334",
    "type": "Community Garden",
    "name": "Urban Farming Institute",
    "phone": "No Number Listed",
    "id": "21"
  },
  {
    "position": { "lat": "26.0601283", "lng": "-80.2960247" },
    "address": "10900 SW 48th St, Davie, FL 33328",
    "type": "Community Garden",
    "name": "Tree Amigos Growers",
    "phone": "(954) 945-4977",
    "id": "22"
  },
  {
    "position": { "lat": "26.2660396", "lng": "-80.2935142" },
    "address": "2915 Sportsplex Dr, Coral Springs, FL 33065",
    "type": "Community Garden",
    "name": "Rotary Community Garden of Coral Springs",
    "phone": "No Number Listed",
    "id": "23"
  },
  {
    "position": { "lat": "25.8142829", "lng": "-80.2482134" },
    "address": "3155 NW 43rd St, Miami, FL 33142",
    "type": "Community Garden",
    "name": "Brownsville Community Garden",
    "phone": "(985) 707-5955",
    "id": "24"
  },
  {
    "position": { "lat": "25.4703266", "lng": "-80.5121144" },
    "address": "19801 SW 320th St, Homestead, FL 33030",
    "type": "Community Garden",
    "name": "Paradise Farms",
    "phone": "No Number Listed",
    "id": "25"
  },
  {
    "position": { "lat": "26.2864391", "lng": "-80.1022357" },
    "address": "100 NE 44th St, Pompano Beach, FL 33064",
    "type": "Community Garden",
    "name": "The Fruitful Field",
    "phone": "No Number Listed",
    "id": "26"
  }
]
