[
    {
      "position": {
        "lat": 25.8017556,
        "lng": -80.2035881
      },
      "address": "3510 Biscayne Blvd, Miami, FL 33137",
      "type": "Food Bank",
      "zone": 1,
      "name": "Food For Life Network",
      "phone": "(305) 576-3663"
    },
    {
      "position": {
        "lat": 25.78734,
        "lng": -80.20012
      },
      "address": "1328 NW 3rd Ave, Miami, FL 33136",
      "type": "Food Bank",
      "zone": 2,
      "name": "Saint John Baptist Church",
      "phone": "(305) 372-3877"
    },
    {
      "position": {
        "lat": 25.98715,
        "lng": -80.17347
      },
      "address": "2501 SW 32nd Terrace, Pembroke Park, FL 33023",
      "type": "Food Bank",
      "zone": 3,
      "name": "Feeding South Florida",
      "phone": "(954) 518-1818"
    },
    {
      "position": {
        "lat": 26.233641,
        "lng": -80.139748
      },
      "address": "1255 W Atlantic Blvd, Pompano Beach, FL 33069",
      "type": "Food Bank",
      "zone": 1,
      "name": "Farm Share",
      "phone": "(954) 942-6785"
    },
    {
      "position": {
        "lat": 25.847023,
        "lng": -80.233667
      },
      "address": "7950 NW 22 Avenue, Miami, FL 33147",
      "type": "Food Bank",
      "zone": 2,
      "name": "Glory Temple Ministries",
      "phone": "(305) 456-5216"
    },
    {
      "position": {
        "lat": 25.830699,
        "lng": -80.20648
      },
      "address": "6025 N.W. 6 Court, Miami, FL 33127",
      "type": "Food Bank",
      "zone": 3,
      "name": "Curleys House of Style",
      "phone": "(305) 759-9805"
    },
    {
      "position": {
        "lat": 25.9712261,
        "lng": -80.2568991
      },
      "address": "3340 NW 215th St, Miami Gardens, FL 33056",
      "type": "Food Bank",
      "zone": 1,
      "name": "Mt Pisgah Seventh-day Adventist Church",
      "phone": "(305) 624-0679"
    },
    {
      "position": {
        "lat": 26.233641,
        "lng": -80.139748
      },
      "address": "7950 NW 22 Avenue Miami, FL 33147",
      "type": "Food Bank",
      "zone": 2,
      "name": "Glory Temple Ministries",
      "phone": "(305) 456-5216"
    },
    {
      "position": {
        "lat": 25.9408686,
        "lng": -80.2390172
      },
      "address": "18291 NW 23rd Ave #3757, Miami Gardens, FL 33056",
      "type": "Food Bank",
      "zone": 3,
      "name": "Harvest Fire Worship Center",
      "phone": "(305) 620-2986"
    },
    {
      "position": {
        "lat": 25.7731991,
        "lng": -80.2194653
      },
      "address": "1492 W Flagler Street Miami, FL 33135",
      "type": "Food Bank",
      "zone": 1,
      "name": "Volunteers of America of FL",
      "phone": "(305) 644-0335"
    },
    {
      "position": {
        "lat": 25.8288133,
        "lng": -80.1917071
      },
      "address": "5801 NE 2nd Ave Miami, FL 33137",
      "type": "Food Bank",
      "zone": 2,
      "name": "Miami Peniel Church Nazarene",
      "phone": "(305) 770-1960"
    }
  ]