[{"name":"Tatiania Flecknoe","phone":"(469) 547-8091","lat":"25.1772916","lng":"-80.0127137","address":"1 Arkansas Hill","zone":3},
{"name":"Daron Foreman","phone":"(571) 314-8131","lat":"25.1221619","lng":"-80.5612823","address":"48 American Ash Alley","zone":3},
{"name":"Marty Gierck","phone":"(502) 353-3827","lat":"25.6676566","lng":"-80.1922425","address":"309 Tennyson Point","zone":3},
{"name":"Allie Gothrup","phone":"(159) 157-7423","lat":"25.6165567","lng":"-80.1621800","address":"1999 Debs Road","zone":2},
{"name":"Chelsae Wildes","phone":"(649) 325-7136","lat":"25.1222154","lng":"-80.0668902","address":"6588 Superior Plaza","zone":3},
{"name":"Lisa Larsen","phone":"(479) 520-3781","lat":"25.8536727","lng":"-80.7459171","address":"2573 Vahlen Trail","zone":2},
{"name":"Sela Endersby","phone":"(303) 171-8088","lat":"25.2801423","lng":"-80.6620736","address":"64554 Nobel Point","zone":2},
{"name":"Travers Berzon","phone":"(934) 204-1341","lat":"25.7274299","lng":"-80.2933482","address":"5 Debs Circle","zone":1},
{"name":"Crystie Exter","phone":"(146) 985-1570","lat":"25.3548636","lng":"-80.1226218","address":"1999 Porter Trail","zone":1},
{"name":"Cecil Mohamed","phone":"(574) 923-6856","lat":"25.3449567","lng":"-80.4320632","address":"129 Mitchell Place","zone":3},
{"name":"Mathe Kidder","phone":"(706) 938-2812","lat":"25.4285435","lng":"-80.0422055","address":"7 Porter Place","zone":3},
{"name":"Idaline Parr","phone":"(368) 114-5393","lat":"25.9456920","lng":"-80.1659736","address":"5 Oak Valley Street","zone":1},
{"name":"Evangeline Kineton","phone":"(531) 401-1194","lat":"25.8309635","lng":"-80.1776568","address":"31 Ludington Hill","zone":2},
{"name":"Leonardo State","phone":"(330) 400-2199","lat":"25.7168439","lng":"-80.1817318","address":"60 Myrtle Park","zone":3},
{"name":"Lizzie Eland","phone":"(337) 788-8421","lat":"25.1164896","lng":"-80.8719580","address":"336 Kensington Alley","zone":3},
{"name":"Arielle Churching","phone":"(171) 160-3162","lat":"25.7185390","lng":"-80.9736355","address":"4 Corben Court","zone":3},
{"name":"Carole Gooble","phone":"(913) 682-2112","lat":"25.0554084","lng":"-80.2735746","address":"4 Nelson Circle","zone":2},
{"name":"Querida Purcer","phone":"(530) 211-9126","lat":"25.2394543","lng":"-80.5876837","address":"127 Merry Hill","zone":1},
{"name":"Arabele Hasnney","phone":"(995) 742-5666","lat":"25.7641233","lng":"-80.2642645","address":"6 Hollow Ridge Avenue","zone":2},
{"name":"Winfield Egleton","phone":"(479) 674-8560","lat":"25.3233187","lng":"-80.0405822","address":"982 Spohn Center","zone":1},
{"name":"Burke Clemitt","phone":"(328) 708-1197","lat":"25.5990964","lng":"-80.4676601","address":"244 Waywood Hill","zone":1},
{"name":"Diane-marie Verny","phone":"(100) 685-9262","lat":"25.9308154","lng":"-80.6280679","address":"547 Meadow Ridge Parkway","zone":1},
{"name":"Diena Mainson","phone":"(995) 869-1407","lat":"25.0323716","lng":"-80.7588708","address":"7 Transport Plaza","zone":1},
{"name":"Georgena Haggus","phone":"(515) 613-4127","lat":"25.2253925","lng":"-80.6070048","address":"95 Anzinger Parkway","zone":2},
{"name":"Simon Andrini","phone":"(504) 279-3398","lat":"25.2373087","lng":"-80.9303017","address":"2384 Weeping Birch Avenue","zone":3},
{"name":"Annabal Kettridge","phone":"(977) 448-1661","lat":"25.4045388","lng":"-80.1159465","address":"33 Maple Place","zone":2},
{"name":"Blondie Skinley","phone":"(479) 762-8689","lat":"25.8889806","lng":"-80.0418679","address":"5725 Prairie Rose Avenue","zone":2},
{"name":"Lucine Edmonston","phone":"(749) 548-1821","lat":"25.0447472","lng":"-80.8877066","address":"11 Kinsman Hill","zone":3},
{"name":"Paulina Guyer","phone":"(851) 662-8605","lat":"25.5053537","lng":"-80.6070221","address":"17 Merrick Point","zone":3},
{"name":"Nealy Druhan","phone":"(902) 723-6280","lat":"25.9184236","lng":"-80.8311156","address":"0 Maple Center","zone":3},
{"name":"Ninette Bradane","phone":"(840) 433-0941","lat":"25.6737037","lng":"-80.7086632","address":"5 Summerview Avenue","zone":1},
{"name":"Tracie Legister","phone":"(734) 211-6305","lat":"25.7502488","lng":"-80.0758438","address":"5242 Sycamore Place","zone":2},
{"name":"Patin Rappaport","phone":"(540) 641-2090","lat":"25.1905195","lng":"-80.3157804","address":"2609 1st Plaza","zone":1},
{"name":"Vita Heyward","phone":"(624) 970-3326","lat":"25.9705445","lng":"-80.2927745","address":"200 Schurz Lane","zone":2},
{"name":"Mirelle Putson","phone":"(993) 246-5667","lat":"25.0786768","lng":"-80.4406934","address":"6 Golf Lane","zone":1},
{"name":"Nathalia Hanbidge","phone":"(589) 197-4375","lat":"25.0586062","lng":"-80.3204615","address":"0 Sundown Plaza","zone":2},
{"name":"Barri Matula","phone":"(336) 378-1800","lat":"25.5209476","lng":"-80.0971246","address":"91 Rigney Park","zone":1},
{"name":"Myra Ramalhete","phone":"(536) 997-7786","lat":"25.8366693","lng":"-80.1240482","address":"415 Sullivan Trail","zone":2},
{"name":"Mikaela Biers","phone":"(322) 970-0923","lat":"25.7339806","lng":"-80.0614701","address":"76703 Roth Court","zone":2},
{"name":"Conn Goldine","phone":"(290) 389-0731","lat":"25.4409802","lng":"-80.0086374","address":"0 Summerview Road","zone":3},
{"name":"Jedediah Pennick","phone":"(164) 559-5530","lat":"25.5608706","lng":"-80.1757859","address":"3944 Meadow Ridge Crossing","zone":1},
{"name":"Rivkah Nannetti","phone":"(806) 548-5782","lat":"25.1755478","lng":"-80.5270740","address":"760 Vidon Terrace","zone":3},
{"name":"Konrad Pancoast","phone":"(188) 428-7291","lat":"25.0746361","lng":"-80.3019339","address":"11 Luster Circle","zone":3},
{"name":"Merell Suerz","phone":"(514) 240-2530","lat":"25.1562256","lng":"-80.8025275","address":"225 Little Fleur Center","zone":1},
{"name":"Rosamond Glasby","phone":"(863) 842-6577","lat":"25.2010028","lng":"-80.6923546","address":"4047 Stone Corner Center","zone":1},
{"name":"Bathsheba Manneville","phone":"(277) 805-2685","lat":"25.1928706","lng":"-80.5145234","address":"0327 Michigan Park","zone":3},
{"name":"Barri Maudlen","phone":"(166) 433-8992","lat":"25.0900946","lng":"-80.9391710","address":"480 Commercial Alley","zone":3},
{"name":"Axe John","phone":"(628) 563-8874","lat":"25.8103348","lng":"-80.2813423","address":"62875 Stone Corner Hill","zone":1},
{"name":"Cesar Hartzog","phone":"(634) 514-1181","lat":"25.8418905","lng":"-80.0405021","address":"2 Hagan Drive","zone":3},
{"name":"Gustave Meeson","phone":"(430) 634-7588","lat":"25.2273714","lng":"-80.1485529","address":"86691 North Hill","zone":1},
{"name":"Celina Silverwood","phone":"(699) 534-6044","lat":"25.8434518","lng":"-80.6864654","address":"5 Waubesa Junction","zone":1},
{"name":"Gearard Bowlesworth","phone":"(103) 475-9234","lat":"25.1671602","lng":"-80.1174071","address":"55 Oxford Lane","zone":2},
{"name":"Zacherie McGreay","phone":"(833) 702-7429","lat":"25.4049840","lng":"-80.6251342","address":"1 Utah Place","zone":2},
{"name":"Guy Cockton","phone":"(203) 845-9442","lat":"25.2239607","lng":"-80.9809757","address":"96 Lillian Street","zone":3},
{"name":"April Blore","phone":"(212) 637-8480","lat":"25.1204435","lng":"-80.7404450","address":"264 Hagan Point","zone":1},
{"name":"Leila Le Teve","phone":"(646) 256-8987","lat":"25.6860785","lng":"-80.1493182","address":"86 Fulton Center","zone":3},
{"name":"Lexie Loosley","phone":"(520) 447-0757","lat":"25.1172407","lng":"-80.1792679","address":"8413 Village Green Plaza","zone":1},
{"name":"Dunc McCall","phone":"(499) 765-5506","lat":"25.2796116","lng":"-80.5599939","address":"1 Steensland Junction","zone":3},
{"name":"Bronson Stoffersen","phone":"(601) 200-2943","lat":"25.7452146","lng":"-80.4785511","address":"48 Grim Hill","zone":3},
{"name":"Fernando Fante","phone":"(703) 678-1952","lat":"25.3513834","lng":"-80.1146339","address":"51 Northwestern Hill","zone":2},
{"name":"Flynn MacVicar","phone":"(414) 455-7636","lat":"25.3902554","lng":"-80.1448075","address":"041 Knutson Parkway","zone":3},
{"name":"Maryjo O'Tierney","phone":"(112) 216-6730","lat":"25.1587812","lng":"-80.5899600","address":"84116 Barby Lane","zone":1},
{"name":"Mariann Backs","phone":"(467) 124-3790","lat":"25.7411098","lng":"-80.0515285","address":"91 Lawn Center","zone":3},
{"name":"Elvina Shea","phone":"(372) 820-1697","lat":"25.7429422","lng":"-80.1079259","address":"52 Meadow Vale Street","zone":1},
{"name":"Hercule Daughtery","phone":"(404) 314-2008","lat":"25.6230961","lng":"-80.3843100","address":"370 Lakewood Gardens Lane","zone":1},
{"name":"Sascha Yanshinov","phone":"(864) 464-0343","lat":"25.5440723","lng":"-80.4327743","address":"99339 Reinke Parkway","zone":3},
{"name":"Kary Gravenell","phone":"(212) 922-6805","lat":"25.4841723","lng":"-80.4417669","address":"4 Warner Court","zone":3},
{"name":"Matthus Sporle","phone":"(226) 254-0078","lat":"25.4268449","lng":"-80.4584032","address":"48654 Northfield Avenue","zone":1},
{"name":"Filmer Burditt","phone":"(971) 741-6384","lat":"25.5093411","lng":"-80.9441973","address":"50148 Rigney Pass","zone":2},
{"name":"Hermine Pitbladdo","phone":"(740) 399-8654","lat":"25.4513692","lng":"-80.5728696","address":"0 Quincy Hill","zone":1},
{"name":"Ruperto Seivwright","phone":"(155) 267-1702","lat":"25.5379965","lng":"-80.1363245","address":"7461 Sycamore Lane","zone":3},
{"name":"Petey Loache","phone":"(899) 980-7926","lat":"25.9402187","lng":"-80.2848772","address":"6 Coleman Crossing","zone":1},
{"name":"Joni Grocutt","phone":"(608) 455-8703","lat":"25.9555050","lng":"-80.8451887","address":"7 Kenwood Place","zone":3},
{"name":"Shurlock Kobelt","phone":"(140) 877-7465","lat":"25.3240740","lng":"-80.2229145","address":"65798 Mariners Cove Center","zone":3},
{"name":"Tanny Crighton","phone":"(212) 694-8625","lat":"25.3604516","lng":"-80.5504445","address":"26599 Homewood Alley","zone":1},
{"name":"Norine Sandars","phone":"(940) 561-5788","lat":"25.0010718","lng":"-80.4758783","address":"0767 Bashford Hill","zone":2},
{"name":"Regina Grier","phone":"(564) 561-5201","lat":"25.0188197","lng":"-80.3074161","address":"2198 Spenser Plaza","zone":1},
{"name":"Lillis Duchasteau","phone":"(669) 202-5387","lat":"25.3994267","lng":"-80.0136742","address":"5365 Holmberg Alley","zone":2},
{"name":"Floria Iacovaccio","phone":"(720) 943-6913","lat":"25.2063361","lng":"-80.3114190","address":"2400 Lakewood Center","zone":3},
{"name":"Gilbertine Pearch","phone":"(926) 114-3009","lat":"25.4361237","lng":"-80.3534629","address":"35 Roth Hill","zone":1},
{"name":"Ynes Halleday","phone":"(155) 769-5292","lat":"25.1945335","lng":"-80.4476788","address":"86859 Arkansas Plaza","zone":1},
{"name":"Lindy Gwatkin","phone":"(757) 439-4391","lat":"25.2784020","lng":"-80.4900309","address":"941 Fulton Terrace","zone":2},
{"name":"Ben Drance","phone":"(595) 489-8884","lat":"25.9591526","lng":"-80.5613156","address":"1528 Donald Circle","zone":2},
{"name":"Maddalena Van der Kruys","phone":"(870) 141-6574","lat":"25.7744181","lng":"-80.0991825","address":"5 Kensington Lane","zone":1},
{"name":"Greer Nequest","phone":"(818) 569-2251","lat":"25.5007038","lng":"-80.6717115","address":"00802 Carberry Circle","zone":2},
{"name":"Gerladina Dovermann","phone":"(207) 599-0783","lat":"25.0647307","lng":"-80.0923661","address":"497 Messerschmidt Lane","zone":2},
{"name":"Leupold De La Haye","phone":"(372) 802-9764","lat":"25.7260351","lng":"-80.0865409","address":"3 Morning Terrace","zone":2},
{"name":"Sybil Clayton","phone":"(179) 248-4998","lat":"25.3715794","lng":"-80.1178232","address":"513 1st Junction","zone":1},
{"name":"Maitilde Hadcroft","phone":"(765) 807-0321","lat":"25.0160649","lng":"-80.5034094","address":"98 Norway Maple Crossing","zone":2},
{"name":"Lettie Novis","phone":"(475) 704-5375","lat":"25.8012914","lng":"-80.8549311","address":"77290 Farragut Plaza","zone":3},
{"name":"Collin Harrad","phone":"(596) 859-8735","lat":"25.8296105","lng":"-80.1715165","address":"42 Stuart Crossing","zone":2},
{"name":"Templeton Brenstuhl","phone":"(324) 575-6647","lat":"25.8496984","lng":"-80.5773054","address":"6 Ohio Trail","zone":1},
{"name":"Jabez Bartolommeo","phone":"(536) 531-3139","lat":"25.2202360","lng":"-80.5347389","address":"9102 Division Trail","zone":3},
{"name":"Grethel Overland","phone":"(983) 925-8371","lat":"25.5364444","lng":"-80.4281758","address":"756 Colorado Junction","zone":2},
{"name":"Almeta Menier","phone":"(221) 393-6294","lat":"25.0077356","lng":"-80.2429044","address":"427 Burning Wood Place","zone":1},
{"name":"Sim Broseman","phone":"(303) 776-0310","lat":"25.9569155","lng":"-80.3115760","address":"7 Fremont Center","zone":1},
{"name":"Tarra Buzine","phone":"(126) 787-9367","lat":"25.1242133","lng":"-80.3469116","address":"3009 Dixon Place","zone":1},
{"name":"Dorelle Ramsdell","phone":"(837) 607-5909","lat":"25.1458314","lng":"-80.7007217","address":"840 Grim Drive","zone":2},
{"name":"Laureen Eakins","phone":"(864) 290-5251","lat":"25.5249620","lng":"-80.4550087","address":"2200 Brown Way","zone":3},
{"name":"Johna Swyer","phone":"(281) 250-9256","lat":"25.9800085","lng":"-80.3941143","address":"2452 Village Green Junction","zone":1},
{"name":"Beverlie Fee","phone":"(277) 375-8725","lat":"25.0594931","lng":"-80.9449851","address":"3 Upham Avenue","zone":2},
{"name":"Ines Campos","phone":"(101) 319-9304","lat":"25.8264744","lng":"-80.4748689","address":"7889 Spaight Parkway","zone":2},
{"name":"Tyrus Skingley","phone":"(557) 841-6989","lat":"25.6201795","lng":"-80.0176761","address":"86 Fulton Parkway","zone":3},
{"name":"Simone Risen","phone":"(326) 481-4289","lat":"25.6818921","lng":"-80.7571646","address":"75724 Grasskamp Trail","zone":1},
{"name":"Aylmar Fortoun","phone":"(997) 572-5269","lat":"25.8291960","lng":"-80.8168794","address":"58 Blue Bill Park Avenue","zone":1},
{"name":"June Izzat","phone":"(597) 857-5376","lat":"25.3859636","lng":"-80.2407249","address":"94173 Nobel Crossing","zone":1},
{"name":"Dimitry Bluck","phone":"(592) 878-1520","lat":"25.4873777","lng":"-80.5582671","address":"22 Center Alley","zone":1},
{"name":"Peter Pride","phone":"(595) 263-9045","lat":"25.0471048","lng":"-80.0232564","address":"901 Nova Avenue","zone":2},
{"name":"Charlton Ubsdall","phone":"(112) 818-2709","lat":"25.1810382","lng":"-80.3584235","address":"47052 Warrior Terrace","zone":3},
{"name":"Solomon Alpine","phone":"(685) 120-2283","lat":"25.8007905","lng":"-80.1882461","address":"9 La Follette Point","zone":3},
{"name":"Hamel Aldins","phone":"(410) 122-8836","lat":"25.2309544","lng":"-80.3252469","address":"2161 Mallory Terrace","zone":1},
{"name":"Benetta Mineghelli","phone":"(100) 457-9419","lat":"25.6990738","lng":"-80.3434252","address":"0594 Springview Plaza","zone":3},
{"name":"Arne Bater","phone":"(642) 423-6999","lat":"25.1250960","lng":"-80.4432844","address":"02 Chive Road","zone":2},
{"name":"Dael Hagyard","phone":"(432) 836-4556","lat":"25.8864738","lng":"-80.3534716","address":"554 Russell Pass","zone":2},
{"name":"Rick Tuckett","phone":"(869) 897-4482","lat":"25.7920527","lng":"-80.2037899","address":"8670 Hagan Plaza","zone":1},
{"name":"Lutero Downe","phone":"(700) 337-7595","lat":"25.4360355","lng":"-80.0495821","address":"85154 Pleasure Place","zone":2},
{"name":"Alidia Ramsdell","phone":"(659) 394-6468","lat":"25.3825676","lng":"-80.0698244","address":"950 Banding Lane","zone":3},
{"name":"Yolande Howe","phone":"(587) 616-9372","lat":"25.6446973","lng":"-80.2212595","address":"0 Vidon Crossing","zone":3},
{"name":"Todd Lansly","phone":"(241) 863-7792","lat":"25.2084943","lng":"-80.1185546","address":"48 Oxford Lane","zone":2},
{"name":"Andrej Chstney","phone":"(273) 422-4674","lat":"25.6195962","lng":"-80.9546121","address":"1 Clove Terrace","zone":1},
{"name":"Lana Blaxeland","phone":"(878) 248-7271","lat":"25.9103359","lng":"-80.0939341","address":"8899 Holy Cross Way","zone":3},
{"name":"Wynne Corbitt","phone":"(380) 519-2485","lat":"25.3548015","lng":"-80.3414730","address":"842 Tomscot Center","zone":3},
{"name":"Faye Fettiplace","phone":"(388) 434-9403","lat":"25.4544166","lng":"-80.1085029","address":"564 Katie Point","zone":3},
{"name":"Marcel Simonnet","phone":"(543) 812-9177","lat":"25.1453628","lng":"-80.8221874","address":"3550 Golf Course Lane","zone":2},
{"name":"Stanislaus Geratasch","phone":"(766) 919-0574","lat":"25.5163159","lng":"-80.2938913","address":"55885 Pleasure Trail","zone":1},
{"name":"Nat Willows","phone":"(527) 145-7102","lat":"25.7693688","lng":"-80.4890427","address":"535 Shasta Pass","zone":2},
{"name":"Erinna Karolowski","phone":"(700) 242-5486","lat":"25.9940230","lng":"-80.7883154","address":"37303 Dennis Pass","zone":1},
{"name":"Guthrey Breyt","phone":"(516) 582-3657","lat":"25.8135386","lng":"-80.3227142","address":"07888 Mayfield Place","zone":2},
{"name":"Konrad Beebee","phone":"(807) 839-7327","lat":"25.9672457","lng":"-80.1563081","address":"01 Florence Plaza","zone":3},
{"name":"Bevvy Laban","phone":"(126) 877-0657","lat":"25.3483895","lng":"-80.2575012","address":"24609 Kinsman Crossing","zone":3},
{"name":"Averill Houlworth","phone":"(381) 970-3437","lat":"25.7442397","lng":"-80.4584011","address":"420 Helena Court","zone":3},
{"name":"Nalani Frake","phone":"(766) 813-9475","lat":"25.6366541","lng":"-80.5872937","address":"9822 Mockingbird Park","zone":1},
{"name":"Giselbert Phlipon","phone":"(448) 799-4676","lat":"25.5249007","lng":"-80.5264057","address":"7222 Dryden Junction","zone":2},
{"name":"Odille Caseri","phone":"(448) 141-3893","lat":"25.3077975","lng":"-80.8704034","address":"640 3rd Hill","zone":2},
{"name":"Jeni Leathlay","phone":"(610) 477-8189","lat":"25.5284848","lng":"-80.3922208","address":"7 Huxley Way","zone":3},
{"name":"Susannah McIlhagga","phone":"(948) 678-1083","lat":"25.9594925","lng":"-80.8196311","address":"786 Roxbury Pass","zone":3},
{"name":"Alysia Gini","phone":"(366) 499-1107","lat":"25.7024212","lng":"-80.7556351","address":"231 Weeping Birch Alley","zone":3},
{"name":"Gwyneth Danielsen","phone":"(812) 951-6595","lat":"25.0784482","lng":"-80.9945604","address":"6489 Comanche Hill","zone":2},
{"name":"Cindie Berston","phone":"(226) 245-9399","lat":"25.3043160","lng":"-80.8174311","address":"8600 Ohio Drive","zone":1},
{"name":"Lacie Treversh","phone":"(563) 721-4436","lat":"25.0380184","lng":"-80.5975760","address":"87 Fairview Hill","zone":3},
{"name":"Ophelie Lean","phone":"(119) 854-9391","lat":"25.2410924","lng":"-80.3510604","address":"10 Melody Point","zone":2},
{"name":"Edee Jessep","phone":"(226) 451-5974","lat":"25.4418043","lng":"-80.1869017","address":"038 Brickson Park Circle","zone":2},
{"name":"Crichton McGilvary","phone":"(182) 225-6291","lat":"25.7534901","lng":"-80.9715029","address":"6954 Hovde Alley","zone":2},
{"name":"Stephani Shakeshaft","phone":"(562) 585-2857","lat":"25.8995760","lng":"-80.9007475","address":"40 Monica Avenue","zone":1},
{"name":"Lane Manhood","phone":"(271) 772-4798","lat":"25.6991913","lng":"-80.0638165","address":"36 Bobwhite Way","zone":1},
{"name":"Gilberto Forbes","phone":"(626) 475-3455","lat":"25.7858238","lng":"-80.4379581","address":"0 Gateway Terrace","zone":3},
{"name":"Libbey Langthorne","phone":"(214) 377-3136","lat":"25.4715401","lng":"-80.3838365","address":"6400 Carberry Pass","zone":3},
{"name":"Spense Shapland","phone":"(618) 101-1040","lat":"25.9223539","lng":"-80.7654134","address":"18 Stoughton Alley","zone":2},
{"name":"Pru Greatreax","phone":"(258) 226-1192","lat":"25.4134693","lng":"-80.2284357","address":"445 Bartillon Street","zone":2},
{"name":"Flori Clemendot","phone":"(164) 842-6860","lat":"25.0972492","lng":"-80.7458405","address":"9696 David Center","zone":3}]